C++Server/FDS/resources/AO-27-passes-no-valido.txt

Upcoming passes for AO-27
Observer: Didcot, Southampton, United Kingdom
LAT:50.90 LON:-1.40
-------------------------------------------------------------------------------------------------
 AOS                  TCA                  LOS                  Duration  Max El  AOS Az  LOS Az
-------------------------------------------------------------------------------------------------
 2016/10/31 00:25:39  2016/10/31 00:32:50  2016/10/31 00:40:01  00:14:22   29.95   21.82  165.83
 2016/10/31 02:05:11  2016/10/31 02:12:35  2016/10/31 02:19:59  00:14:47   47.43   10.62  215.62
 2016/10/31 03:45:27  2016/10/31 03:50:57  2016/10/31 03:56:28  00:11:00   10.27    1.32  266.35
 2016/10/31 10:11:40  2016/10/31 10:17:49  2016/10/31 10:23:57  00:12:17   14.83  106.15  356.35
 2016/10/31 11:48:57  2016/10/31 11:56:30  2016/10/31 12:04:04  00:15:06   71.23  155.79  347.13
 2016/10/31 13:29:50  2016/10/31 13:36:35  2016/10/31 13:43:21  00:13:30   19.94  207.00  334.50
 2016/10/31 23:57:05  2016/11/01 00:03:41  2016/11/01 00:10:18  00:13:13   18.06   26.49  149.86
 2016/11/01 01:36:17  2016/11/01 01:43:51  2016/11/01 01:51:25  00:15:07   78.10   13.42  201.56
 2016/11/01 03:16:21  2016/11/01 03:22:37  2016/11/01 03:28:53  00:12:31   16.06    4.14  251.05
 2016/11/01 09:44:09  2016/11/01 09:49:30  2016/11/01 09:54:51  00:10:41    9.38   90.71  359.22

 Orbit 120650
----------------------------------------------
 Time                  Az      El  Range Footp
----------------------------------------------
 2016/10/31 00:25:39  21.82  -0.00  3317  6115
 2016/10/31 00:26:22  24.20   2.45  3054  6114
 2016/10/31 00:27:05  27.00   5.10  2796  6112
 2016/10/31 00:27:48  30.36   7.98  2544  6110
 2016/10/31 00:28:31  34.46  11.14  2302  6108
 2016/10/31 00:29:14  39.56  14.59  2073  6106
 2016/10/31 00:29:58  46.04  18.32  1864  6104
 2016/10/31 00:30:41  54.35  22.22  1682  6102
 2016/10/31 00:31:24  64.98  25.92  1537  6099
 2016/10/31 00:32:07  78.08  28.77  1440  6097
 2016/10/31 00:32:50  92.99  29.95  1403  6094
 2016/10/31 00:33:33 108.05  29.02  1430  6091
 2016/10/31 00:34:16 121.49  26.31  1518  6089
 2016/10/31 00:34:59 132.48  22.63  1656  6086
 2016/10/31 00:35:42 141.09  18.70  1834  6084
 2016/10/31 00:36:26 147.79  14.89  2040  6081
 2016/10/31 00:37:09 153.04  11.36  2267  6079
 2016/10/31 00:37:52 157.23   8.14  2508  6076
 2016/10/31 00:38:35 160.63   5.20  2760  6074
 2016/10/31 00:39:18 163.45   2.50  3020  6072

 Orbit 120651
----------------------------------------------
 Time                  Az      El  Range Footp
----------------------------------------------
 2016/10/31 02:05:11  10.62   0.00  3317  6117
 2016/10/31 02:05:56   9.44   2.73  3027  6116
 2016/10/31 02:06:40   7.96   5.75  2738  6115
 2016/10/31 02:07:24   6.07   9.13  2453  6113
 2016/10/31 02:08:09   3.58  13.01  2175  6111
 2016/10/31 02:08:53   0.20  17.56  1906  6109
 2016/10/31 02:09:38 355.43  22.98  1652  6107
 2016/10/31 02:10:22 348.33  29.47  1422  6105
 2016/10/31 02:11:06 337.23  36.90  1231  6103
 2016/10/31 02:11:51 319.55  44.00  1097  6100
 2016/10/31 02:12:35 294.50  47.43  1046  6098
 2016/10/31 02:13:19 268.98  44.49  1088  6095
 2016/10/31 02:14:04 250.56  37.51  1214  6092
 2016/10/31 02:14:48 238.94  29.98  1400  6090
 2016/10/31 02:15:33 231.54  23.36  1627  6087
 2016/10/31 02:16:17 226.56  17.82  1879  6084
 2016/10/31 02:17:01 223.05  13.19  2146  6082
 2016/10/31 02:17:46 220.45   9.24  2424  6079
 2016/10/31 02:18:30 218.46   5.80  2708  6077
 2016/10/31 02:19:15 216.89   2.75  2996  6074

 Orbit 120652
----------------------------------------------
 Time                  Az      El  Range Footp
----------------------------------------------
 2016/10/31 03:45:27   1.32   0.00  3318  6118
 2016/10/31 03:46:00 358.23   1.45  3161  6117
 2016/10/31 03:46:33 354.80   2.87  3013  6116
 2016/10/31 03:47:06 351.00   4.27  2875  6115
 2016/10/31 03:47:39 346.81   5.61  2750  6114
 2016/10/31 03:48:12 342.22   6.87  2639  6113
 2016/10/31 03:48:45 337.21   7.99  2544  6112
 2016/10/31 03:49:18 331.82   8.93  2468  6110
 2016/10/31 03:49:51 326.09   9.65  2411  6109
 2016/10/31 03:50:24 320.12  10.11  2376  6107
 2016/10/31 03:50:57 314.01  10.27  2364  6106
 2016/10/31 03:51:30 307.90  10.11  2374  6104
 2016/10/31 03:52:03 301.91   9.66  2407  6102
 2016/10/31 03:52:37 296.16   8.94  2461  6100
 2016/10/31 03:53:10 290.73   8.00  2536  6098
 2016/10/31 03:53:43 285.69   6.88  2629  6096
 2016/10/31 03:54:16 281.05   5.62  2738  6094
 2016/10/31 03:54:49 276.81   4.27  2862  6092
 2016/10/31 03:55:22 272.97   2.87  2998  6090
 2016/10/31 03:55:55 269.49   1.44  3145  6088

 Orbit 120656
----------------------------------------------
 Time                  Az      El  Range Footp
----------------------------------------------
 2016/10/31 10:11:40 106.15  -0.00  3299  6085
 2016/10/31 10:12:17 103.13   1.82  3103  6087
 2016/10/31 10:12:54  99.68   3.69  2916  6089
 2016/10/31 10:13:31  95.75   5.59  2739  6092
 2016/10/31 10:14:08  91.25   7.48  2576  6094
 2016/10/31 10:14:44  86.12   9.32  2429  6096
 2016/10/31 10:15:21  80.30  11.05  2302  6098
 2016/10/31 10:15:58  73.78  12.58  2198  6100
 2016/10/31 10:16:35  66.61  13.79  2121  6102
 2016/10/31 10:17:12  58.93  14.57  2074  6104
 2016/10/31 10:17:49  50.98  14.83  2058  6106
 2016/10/31 10:18:26  43.04  14.55  2076  6107
 2016/10/31 10:19:02  35.40  13.76  2126  6109
 2016/10/31 10:19:39  28.28  12.54  2206  6111
 2016/10/31 10:20:16  21.82  11.02  2312  6112
 2016/10/31 10:20:53  16.06   9.29  2442  6114
 2016/10/31 10:21:30  10.99   7.45  2591  6115
 2016/10/31 10:22:07   6.56   5.56  2755  6116
 2016/10/31 10:22:44   2.69   3.68  2933  6117
 2016/10/31 10:23:20 359.31   1.82  3122  6118

 Orbit 120657
----------------------------------------------
 Time                  Az      El  Range Footp
----------------------------------------------
 2016/10/31 11:48:57 155.79   0.00  3287  6075
 2016/10/31 11:49:43 155.36   2.88  2984  6077
 2016/10/31 11:50:28 154.81   6.10  2683  6079
 2016/10/31 11:51:13 154.08   9.78  2384  6081
 2016/10/31 11:51:59 153.09  14.11  2089  6084
 2016/10/31 11:52:44 151.67  19.39  1801  6086
 2016/10/31 11:53:29 149.51  26.09  1525  6089
 2016/10/31 11:54:14 145.92  34.94  1270  6091
 2016/10/31 11:55:00 138.93  46.89  1052  6094
 2016/10/31 11:55:45 121.29  61.90   898  6097
 2016/10/31 11:56:30  67.63  71.23   845  6099
 2016/10/31 11:57:16  18.47  60.39   911  6102
 2016/10/31 11:58:01   2.69  45.62  1074  6104
 2016/10/31 11:58:46 356.24  34.07  1297  6106
 2016/10/31 11:59:32 352.87  25.52  1555  6108
 2016/10/31 12:00:17 350.84  19.02  1832  6110
 2016/10/31 12:01:02 349.52  13.87  2121  6112
 2016/10/31 12:01:48 348.60   9.62  2416  6114
 2016/10/31 12:02:33 347.95   6.01  2715  6115
 2016/10/31 12:03:18 347.48   2.84  3016  6117

 Orbit 120658
----------------------------------------------
 Time                  Az      El  Range Footp
----------------------------------------------
 2016/10/31 13:29:50 207.00   0.00  3287  6075
 2016/10/31 13:30:31 209.99   2.15  3059  6077
 2016/10/31 13:31:11 213.45   4.40  2839  6079
 2016/10/31 13:31:52 217.48   6.74  2628  6081
 2016/10/31 13:32:32 222.22   9.18  2431  6083
 2016/10/31 13:33:13 227.82  11.67  2250  6085
 2016/10/31 13:33:53 234.44  14.12  2091  6088
 2016/10/31 13:34:34 242.17  16.39  1959  6090
 2016/10/31 13:35:14 251.05  18.28  1860  6092
 2016/10/31 13:35:55 260.89  19.54  1799  6095
 2016/10/31 13:36:35 271.26  19.94  1781  6097
 2016/10/31 13:37:16 281.59  19.43  1807  6099
 2016/10/31 13:37:56 291.29  18.10  1874  6101
 2016/10/31 13:38:37 299.99  16.17  1979  6103
 2016/10/31 13:39:17 307.55  13.89  2116  6106
 2016/10/31 13:39:58 314.01  11.46  2278  6108
 2016/10/31 13:40:38 319.48   9.01  2461  6109
 2016/10/31 13:41:19 324.13   6.62  2660  6111
 2016/10/31 13:42:00 328.10   4.31  2871  6113
 2016/10/31 13:42:40 331.52   2.10  3091  6114
 2016/10/31 13:43:21 334.50  -0.00  3318  6115

 Orbit 120665
----------------------------------------------
 Time                  Az      El  Range Footp
----------------------------------------------
 2016/10/31 23:57:05  26.49   0.00  3316  6113
 2016/10/31 23:57:44  29.57   2.01  3099  6112
 2016/10/31 23:58:24  33.09   4.10  2889  6110
 2016/10/31 23:59:04  37.14   6.26  2690  6109
 2016/10/31 23:59:43  41.83   8.47  2502  6107
 2016/11/01 00:00:23  47.28  10.70  2331  6105
 2016/11/01 00:01:03  53.61  12.87  2180  6102
 2016/11/01 00:01:42  60.89  14.86  2054  6100
 2016/11/01 00:02:22  69.13  16.51  1957  6098
 2016/11/01 00:03:02  78.17  17.64  1895  6096
 2016/11/01 00:03:41  87.71  18.06  1872  6093
 2016/11/01 00:04:21  97.28  17.72  1888  6091
 2016/11/01 00:05:01 106.43  16.66  1943  6088
 2016/11/01 00:05:41 114.82  15.05  2034  6086
 2016/11/01 00:06:20 122.26  13.06  2156  6084
 2016/11/01 00:07:00 128.73  10.87  2304  6081
 2016/11/01 00:07:40 134.30   8.61  2473  6079
 2016/11/01 00:08:19 139.09   6.36  2659  6077
 2016/11/01 00:08:59 143.20   4.17  2858  6075
 2016/11/01 00:09:39 146.76   2.04  3068  6073
 2016/11/01 00:10:18 149.86  -0.00  3286  6071

 Orbit 120666
----------------------------------------------
 Time                  Az      El  Range Footp
----------------------------------------------
 2016/11/01 01:36:17  13.42   0.00  3317  6116
 2016/11/01 01:37:03  13.27   2.86  3014  6115
 2016/11/01 01:37:48  13.04   6.04  2711  6114
 2016/11/01 01:38:33  12.70   9.68  2411  6112
 2016/11/01 01:39:19  12.20  13.96  2114  6110
 2016/11/01 01:40:04  11.43  19.17  1823  6108
 2016/11/01 01:40:50  10.22  25.80  1544  6106
 2016/11/01 01:41:35   8.13  34.62  1283  6103
 2016/11/01 01:42:20   3.95  46.83  1055  6101
 2016/11/01 01:43:06 352.54  63.40   888  6098
 2016/11/01 01:43:51 293.82  78.10   820  6095
 2016/11/01 01:44:36 225.17  65.31   874  6093
 2016/11/01 01:45:22 212.04  48.26  1032  6090
 2016/11/01 01:46:07 207.47  35.56  1254  6087
 2016/11/01 01:46:53 205.22  26.40  1512  6084
 2016/11/01 01:47:38 203.90  19.55  1790  6082
 2016/11/01 01:48:23 203.06  14.20  2080  6079
 2016/11/01 01:49:09 202.49   9.82  2377  6076
 2016/11/01 01:49:54 202.08   6.12  2678  6074
 2016/11/01 01:50:40 201.78   2.88  2981  6072

 Orbit 120667
----------------------------------------------
 Time                  Az      El  Range Footp
----------------------------------------------
 2016/11/01 03:16:21   4.14   0.00  3318  6117
 2016/11/01 03:16:59   1.24   1.91  3112  6116
 2016/11/01 03:17:37 357.91   3.86  2914  6115
 2016/11/01 03:18:14 354.07   5.86  2727  6114
 2016/11/01 03:18:52 349.63   7.88  2553  6113
 2016/11/01 03:19:29 344.50   9.87  2396  6111
 2016/11/01 03:20:07 338.60  11.77  2258  6110
 2016/11/01 03:20:45 331.90  13.47  2144  6108
 2016/11/01 03:21:22 324.44  14.84  2058  6106
 2016/11/01 03:22:00 316.35  15.74  2004  6104
 2016/11/01 03:22:37 307.91  16.06  1985  6102
 2016/11/01 03:23:15 299.46  15.76  2001  6100
 2016/11/01 03:23:52 291.33  14.87  2052  6098
 2016/11/01 03:24:30 283.80  13.51  2135  6096
 2016/11/01 03:25:08 277.03  11.82  2246  6094
 2016/11/01 03:25:45 271.06   9.91  2381  6091
 2016/11/01 03:26:23 265.85   7.91  2537  6089
 2016/11/01 03:27:00 261.33   5.88  2709  6087
 2016/11/01 03:27:38 257.42   3.87  2895  6084
 2016/11/01 03:28:16 254.02   1.91  3091  6082

 Orbit 120670
----------------------------------------------
 Time                  Az      El  Range Footp
----------------------------------------------
 2016/11/01 09:44:09  90.71  -0.00  3304  6091
 2016/11/01 09:44:41  87.57   1.35  3157  6093
 2016/11/01 09:45:13  84.13   2.69  3020  6095
 2016/11/01 09:45:45  80.34   3.98  2893  6097
 2016/11/01 09:46:17  76.21   5.22  2778  6099
 2016/11/01 09:46:49  71.71   6.36  2677  6100
 2016/11/01 09:47:22  66.86   7.37  2591  6102
 2016/11/01 09:47:54  61.68   8.21  2522  6104
 2016/11/01 09:48:26  56.23   8.85  2472  6105
 2016/11/01 09:48:58  50.58   9.25  2442  6107
 2016/11/01 09:49:30  44.82   9.38  2432  6108
 2016/11/01 09:50:02  39.06   9.24  2443  6110
 2016/11/01 09:50:34  33.42   8.84  2475  6111
 2016/11/01 09:51:06  27.99   8.20  2527  6112
 2016/11/01 09:51:38  22.84   7.36  2598  6114
 2016/11/01 09:52:10  18.02   6.35  2685  6115
 2016/11/01 09:52:42  13.56   5.21  2788  6116
 2016/11/01 09:53:15   9.47   3.97  2904  6116
 2016/11/01 09:53:47   5.72   2.68  3033  6117
 2016/11/01 09:54:19   2.32   1.35  3172  6118
