C++Server/FDS/resources/AO-51-passes-no-valido.txt

Upcoming passes for AO-51
Observer: Didcot, Southampton, United Kingdom
LAT:50.90 LON:-1.40
-------------------------------------------------------------------------------------------------
 AOS                  TCA                  LOS                  Duration  Max El  AOS Az  LOS Az
-------------------------------------------------------------------------------------------------
 2016/10/30 23:17:16  2016/10/30 23:24:44  2016/10/30 23:32:12  00:14:56   69.50   15.18  189.23
 2016/10/31 00:56:26  2016/10/31 01:03:06  2016/10/31 01:09:47  00:13:20   22.29    5.60  238.83
 2016/10/31 07:22:50  2016/10/31 07:27:09  2016/10/31 07:31:27  00:08:36    5.13   73.42    3.70
 2016/10/31 08:57:15  2016/10/31 09:04:16  2016/10/31 09:11:18  00:14:02   26.47  126.44  353.45
 2016/10/31 10:35:06  2016/10/31 10:42:45  2016/10/31 10:50:24  00:15:18   60.42  174.97  343.87
 2016/10/31 12:16:56  2016/10/31 12:22:39  2016/10/31 12:28:22  00:11:25    9.88  230.05  327.90
 2016/10/31 22:37:32  2016/10/31 22:44:42  2016/10/31 22:51:51  00:14:18   33.47   20.05  168.61
 2016/11/01 00:16:24  2016/11/01 00:23:37  2016/11/01 00:30:50  00:14:25   41.23    9.23  218.82
 2016/11/01 01:55:59  2016/11/01 02:01:11  2016/11/01 02:06:22  00:10:23    8.79  359.67  270.55
 2016/11/01 08:18:45  2016/11/01 08:24:57  2016/11/01 08:31:10  00:12:25   14.79  106.28  357.12

 Orbit 65016
----------------------------------------------
 Time                  Az      El  Range Footp
----------------------------------------------
 2016/10/30 23:17:16  15.18   0.00  3323  6126
 2016/10/30 23:18:01  15.90   2.76  3026  6118
 2016/10/30 23:18:45  16.74   5.81  2730  6110
 2016/10/30 23:19:30  17.74   9.28  2435  6102
 2016/10/30 23:20:15  18.99  13.33  2144  6093
 2016/10/30 23:21:00  20.63  18.21  1858  6084
 2016/10/30 23:21:45  22.92  24.33  1582  6074
 2016/10/30 23:22:29  26.44  32.31  1324  6064
 2016/10/30 23:23:14  32.66  43.05  1095  6053
 2016/10/30 23:23:59  46.50  57.05   920  6042
 2016/10/30 23:24:44  87.13  69.50   833  6031
 2016/10/30 23:25:29 145.38  63.65   862  6020
 2016/10/30 23:26:13 167.60  48.68   997  6008
 2016/10/30 23:26:58 176.25  36.14  1203  5997
 2016/10/30 23:27:43 180.70  26.84  1450  5985
 2016/10/30 23:28:28 183.42  19.85  1720  5973
 2016/10/30 23:29:13 185.27  14.38  2002  5961
 2016/10/30 23:29:58 186.63   9.93  2293  5950
 2016/10/30 23:30:42 187.68   6.18  2589  5938
 2016/10/30 23:31:27 188.53   2.91  2887  5926

 Orbit 65017
----------------------------------------------
 Time                  Az      El  Range Footp
----------------------------------------------
 2016/10/31 00:56:26   5.60   0.00  3327  6133
 2016/10/31 00:57:06   3.15   2.18  3089  6127
 2016/10/31 00:57:46   0.27   4.49  2858  6120
 2016/10/31 00:58:26 356.84   6.92  2634  6113
 2016/10/31 00:59:06 352.71   9.49  2422  6106
 2016/10/31 00:59:46 347.70  12.16  2224  6098
 2016/10/31 01:00:26 341.62  14.88  2046  6090
 2016/10/31 01:01:06 334.25  17.53  1893  6081
 2016/10/31 01:01:46 325.48  19.85  1772  6072
 2016/10/31 01:02:26 315.36  21.55  1690  6063
 2016/10/31 01:03:06 304.33  22.29  1654  6054
 2016/10/31 01:03:46 293.11  21.88  1667  6044
 2016/10/31 01:04:26 282.50  20.41  1726  6035
 2016/10/31 01:05:07 273.09  18.17  1829  6025
 2016/10/31 01:05:47 265.09  15.51  1967  6014
 2016/10/31 01:06:27 258.44  12.70  2134  6004
 2016/10/31 01:07:07 252.95   9.91  2323  5994
 2016/10/31 01:07:47 248.43   7.22  2529  5983
 2016/10/31 01:08:27 244.66   4.67  2748  5972
 2016/10/31 01:09:07 241.51   2.27  2977  5962

 Orbit 65021
----------------------------------------------
 Time                  Az      El  Range Footp
----------------------------------------------
 2016/10/31 07:22:50  73.42  -0.00  3345  6156
 2016/10/31 07:23:16  70.57   0.84  3254  6158
 2016/10/31 07:23:42  67.56   1.63  3170  6160
 2016/10/31 07:24:08  64.38   2.38  3094  6162
 2016/10/31 07:24:34  61.05   3.05  3026  6163
 2016/10/31 07:25:00  57.56   3.65  2967  6165
 2016/10/31 07:25:25  53.94   4.17  2918  6166
 2016/10/31 07:25:51  50.20   4.58  2880  6167
 2016/10/31 07:26:17  46.37   4.88  2852  6168
 2016/10/31 07:26:43  42.47   5.06  2835  6168
 2016/10/31 07:27:09  38.54   5.13  2829  6169
 2016/10/31 07:27:35  34.61   5.07  2835  6169
 2016/10/31 07:28:01  30.71   4.88  2852  6169
 2016/10/31 07:28:26  26.88   4.58  2880  6169
 2016/10/31 07:28:52  23.14   4.17  2919  6169
 2016/10/31 07:29:18  19.52   3.66  2968  6168
 2016/10/31 07:29:44  16.04   3.06  3027  6167
 2016/10/31 07:30:10  12.71   2.38  3095  6166
 2016/10/31 07:30:36   9.54   1.64  3171  6165
 2016/10/31 07:31:02   6.53   0.84  3256  6164
 2016/10/31 07:31:27   3.70  -0.00  3347  6162

 Orbit 65022
----------------------------------------------
 Time                  Az      El  Range Footp
----------------------------------------------
 2016/10/31 08:57:15 126.44   0.00  3318  6119
 2016/10/31 08:57:57 124.07   2.42  3064  6125
 2016/10/31 08:58:39 121.24   5.01  2815  6131
 2016/10/31 08:59:21 117.83   7.79  2575  6136
 2016/10/31 09:00:03 113.65  10.78  2347  6141
 2016/10/31 09:00:45 108.47  13.97  2134  6145
 2016/10/31 09:01:28 101.99  17.31  1942  6149
 2016/10/31 09:02:10  93.89  20.64  1779  6153
 2016/10/31 09:02:52  83.92  23.61  1653  6157
 2016/10/31 09:03:34  72.17  25.72  1573  6160
 2016/10/31 09:04:16  59.30  26.47  1548  6163
 2016/10/31 09:04:58  46.49  25.62  1579  6165
 2016/10/31 09:05:40  34.89  23.44  1664  6166
 2016/10/31 09:06:23  25.12  20.45  1794  6168
 2016/10/31 09:07:05  17.20  17.14  1961  6169
 2016/10/31 09:07:47  10.88  13.83  2156  6169
 2016/10/31 09:08:29   5.83  10.67  2371  6169
 2016/10/31 09:09:11   1.77   7.71  2601  6168
 2016/10/31 09:09:53 358.46   4.96  2843  6167
 2016/10/31 09:10:36 355.73   2.39  3092  6165
 2016/10/31 09:11:18 353.45  -0.00  3347  6163

 Orbit 65023
----------------------------------------------
 Time                  Az      El  Range Footp
----------------------------------------------
 2016/10/31 10:35:06 174.97   0.00  3303  6101
 2016/10/31 10:35:52 175.98   2.90  3002  6108
 2016/10/31 10:36:38 177.22   6.12  2702  6115
 2016/10/31 10:37:24 178.75   9.79  2406  6121
 2016/10/31 10:38:10 180.72  14.08  2115  6127
 2016/10/31 10:38:56 183.38  19.24  1833  6133
 2016/10/31 10:39:42 187.20  25.65  1565  6139
 2016/10/31 10:40:27 193.16  33.82  1320  6144
 2016/10/31 10:41:13 203.61  44.10  1114  6148
 2016/10/31 10:41:59 224.43  55.22   974  6153
 2016/10/31 10:42:45 262.62  60.42   929  6156
 2016/10/31 10:43:31 298.34  53.64   993  6160
 2016/10/31 10:44:17 316.88  42.49  1147  6163
 2016/10/31 10:45:03 326.35  32.61  1361  6165
 2016/10/31 10:45:49 331.89  24.82  1610  6167
 2016/10/31 10:46:35 335.51  18.68  1881  6168
 2016/10/31 10:47:21 338.08  13.71  2164  6169
 2016/10/31 10:48:07 340.01   9.56  2455  6169
 2016/10/31 10:48:53 341.55   5.99  2750  6168
 2016/10/31 10:49:39 342.81   2.84  3049  6167

 Orbit 65024
----------------------------------------------
 Time                  Az      El  Range Footp
----------------------------------------------
 2016/10/31 12:16:56 230.05  -0.00  3317  6118
 2016/10/31 12:17:30 233.44   1.42  3166  6123
 2016/10/31 12:18:05 237.16   2.83  3024  6127
 2016/10/31 12:18:39 241.23   4.20  2893  6132
 2016/10/31 12:19:13 245.67   5.50  2774  6136
 2016/10/31 12:19:48 250.50   6.71  2670  6140
 2016/10/31 12:20:22 255.70   7.78  2581  6143
 2016/10/31 12:20:56 261.25   8.67  2511  6147
 2016/10/31 12:21:30 267.10   9.34  2461  6150
 2016/10/31 12:22:05 273.15   9.75  2431  6153
 2016/10/31 12:22:39 279.30   9.88  2423  6156
 2016/10/31 12:23:13 285.44   9.72  2437  6159
 2016/10/31 12:23:47 291.44   9.28  2472  6161
 2016/10/31 12:24:22 297.22   8.59  2528  6163
 2016/10/31 12:24:56 302.69   7.69  2603  6165
 2016/10/31 12:25:30 307.81   6.62  2694  6166
 2016/10/31 12:26:05 312.55   5.42  2802  6167
 2016/10/31 12:26:39 316.91   4.13  2923  6168
 2016/10/31 12:27:13 320.91   2.78  3056  6169
 2016/10/31 12:27:47 324.56   1.40  3199  6169
 2016/10/31 12:28:22 327.90   0.00  3351  6168

 Orbit 65030
----------------------------------------------
 Time                  Az      El  Range Footp
----------------------------------------------
 2016/10/31 22:37:32  20.05  -0.00  3316  6113
 2016/10/31 22:38:15  22.15   2.46  3048  6105
 2016/10/31 22:38:58  24.62   5.13  2784  6097
 2016/10/31 22:39:41  27.60   8.05  2524  6088
 2016/10/31 22:40:24  31.25  11.29  2273  6079
 2016/10/31 22:41:07  35.86  14.90  2033  6069
 2016/10/31 22:41:50  41.81  18.93  1810  6059
 2016/10/31 22:42:33  49.68  23.31  1610  6049
 2016/10/31 22:43:16  60.19  27.76  1445  6039
 2016/10/31 22:43:59  73.91  31.54  1329  6028
 2016/10/31 22:44:42  90.47  33.47  1274  6017
 2016/10/31 22:45:25 107.76  32.67  1290  6006
 2016/10/31 22:46:07 123.10  29.46  1373  5995
 2016/10/31 22:46:50 135.23  25.03  1512  5983
 2016/10/31 22:47:33 144.36  20.38  1695  5972
 2016/10/31 22:48:16 151.20  16.03  1907  5961
 2016/10/31 22:48:59 156.41  12.10  2140  5949
 2016/10/31 22:49:42 160.48   8.60  2388  5938
 2016/10/31 22:50:25 163.73   5.45  2646  5927
 2016/10/31 22:51:08 166.39   2.60  2911  5916

 Orbit 65031
----------------------------------------------
 Time                  Az      El  Range Footp
----------------------------------------------
 2016/11/01 00:16:24   9.23   0.00  3322  6123
 2016/11/01 00:17:07   7.85   2.60  3041  6116
 2016/11/01 00:17:50   6.13   5.44  2762  6109
 2016/11/01 00:18:34   3.97   8.60  2488  6100
 2016/11/01 00:19:17   1.18  12.16  2220  6092
 2016/11/01 00:20:00 357.48  16.26  1962  6083
 2016/11/01 00:20:44 352.42  21.02  1719  6073
 2016/11/01 00:21:27 345.23  26.51  1498  6064
 2016/11/01 00:22:10 334.70  32.55  1313  6054
 2016/11/01 00:22:54 319.32  38.17  1180  6043
 2016/11/01 00:23:37 298.82  41.23  1118  6032
 2016/11/01 00:24:20 277.03  39.81  1139  6022
 2016/11/01 00:25:03 259.21  34.78  1240  6010
 2016/11/01 00:25:47 246.69  28.54  1402  5999
 2016/11/01 00:26:30 238.18  22.60  1608  5988
 2016/11/01 00:27:13 232.26  17.41  1842  5976
 2016/11/01 00:27:57 228.00  12.95  2094  5965
 2016/11/01 00:28:40 224.81   9.10  2359  5953
 2016/11/01 00:29:23 222.35   5.73  2632  5942
 2016/11/01 00:30:07 220.40   2.72  2910  5930
 2016/11/01 00:30:50 218.82  -0.00  3191  5919

 Orbit 65032
----------------------------------------------
 Time                  Az      El  Range Footp
----------------------------------------------
 2016/11/01 01:55:59 359.67   0.00  3324  6127
 2016/11/01 01:56:30 356.65   1.28  3182  6122
 2016/11/01 01:57:01 353.34   2.52  3048  6117
 2016/11/01 01:57:33 349.72   3.73  2924  6111
 2016/11/01 01:58:04 345.78   4.88  2812  6105
 2016/11/01 01:58:35 341.49   5.94  2712  6099
 2016/11/01 01:59:06 336.88   6.88  2626  6093
 2016/11/01 01:59:37 331.96   7.66  2556  6087
 2016/11/01 02:00:08 326.77   8.26  2503  6080
 2016/11/01 02:00:40 321.38   8.65  2468  6073
 2016/11/01 02:01:11 315.87   8.79  2452  6066
 2016/11/01 02:01:42 310.33   8.69  2456  6059
 2016/11/01 02:02:13 304.86   8.34  2480  6052
 2016/11/01 02:02:44 299.55   7.77  2522  6044
 2016/11/01 02:03:15 294.47   6.99  2582  6037
 2016/11/01 02:03:47 289.68   6.06  2659  6029
 2016/11/01 02:04:18 285.20   4.99  2751  6021
 2016/11/01 02:04:49 281.06   3.82  2856  6013
 2016/11/01 02:05:20 277.24   2.58  2974  6005
 2016/11/01 02:05:51 273.75   1.30  3102  5997
 2016/11/01 02:06:22 270.55  -0.00  3239  5989

 Orbit 65036
----------------------------------------------
 Time                  Az      El  Range Footp
----------------------------------------------
 2016/11/01 08:18:45 106.28  -0.00  3332  6137
 2016/11/01 08:19:22 103.25   1.83  3136  6141
 2016/11/01 08:19:59  99.80   3.70  2950  6145
 2016/11/01 08:20:37  95.88   5.60  2774  6149
 2016/11/01 08:21:14  91.39   7.49  2611  6152
 2016/11/01 08:21:51  86.29   9.32  2465  6155
 2016/11/01 08:22:28  80.51  11.04  2338  6158
 2016/11/01 08:23:06  74.05  12.56  2235  6160
 2016/11/01 08:23:43  66.96  13.75  2158  6162
 2016/11/01 08:24:20  59.38  14.53  2110  6164
 2016/11/01 08:24:57  51.53  14.79  2095  6165
 2016/11/01 08:25:35  43.69  14.52  2112  6166
 2016/11/01 08:26:12  36.12  13.74  2161  6167
 2016/11/01 08:26:49  29.06  12.55  2239  6167
 2016/11/01 08:27:26  22.63  11.03  2344  6167
 2016/11/01 08:28:04  16.89   9.32  2472  6167
 2016/11/01 08:28:41  11.82   7.48  2619  6166
 2016/11/01 08:29:18   7.38   5.59  2783  6164
 2016/11/01 08:29:55   3.50   3.70  2960  6163
 2016/11/01 08:30:33   0.10   1.83  3148  6160
